<?xml version="1.0" encoding="UTF-8"?>
<stations lastUpdate="1363906061463" version="2.0"><station><id>1</id><name>20th &amp; Bell St</name><terminalName>31000</terminalName><lastCommWithServer>1363906019255</lastCommWithServer><lat>38.8561</lat><long>-77.0512</long><installed>true</installed><locked>false</locked><installDate>1316059200000</installDate><removalDate/><temporary>false</temporary><public>true</public><nbBikes>6</nbBikes><nbEmptyDocks>5</nbEmptyDocks><latestUpdateTime>1363902113747</latestUpdateTime></station><station><id>2</id><name>Pentagon City Metro / 12th &amp; Hayes St</name><terminalName>31001</terminalName><lastCommWithServer>1363906051370</lastCommWithServer><lat>38.862179</lat><long>-77.059986</long><installed>true</installed><locked>false</locked><installDate>1284989400000</installDate><removalDate/><temporary>false</temporary><public>true</public><nbBikes>4</nbBikes><nbEmptyDocks>14</nbEmptyDocks><latestUpdateTime>1363904118030</latestUpdateTime></station><station><id>3</id><name>20th &amp; Crystal Dr</name><terminalName>31002</terminalName><lastCommWithServer>1363905974559</lastCommWithServer><lat>38.8564</lat><long>-77.0492</long><installed>true</installed><locked>false</locked><installDate>1284464580000</installDate><removalDate/><temporary>false</temporary><public>true</public><nbBikes>6</nbBikes><nbEmptyDocks>9</nbEmptyDocks><latestUpdateTime>1363904588865</latestUpdateTime></station><station><id>4</id><name>15th &amp; Crystal Dr</name><terminalName>31003</terminalName><lastCommWithServer>1363906011422</lastCommWithServer><lat>38.860244</lat><long>-77.050276</long><installed>true</installed><locked>false</locked><installDate>1284464880000</installDate><removalDate/><temporary>false</temporary><public>true</public><nbBikes>3</nbBikes><nbEmptyDocks>8</nbEmptyDocks><latestUpdateTime>1363891466416</latestUpdateTime></station><station><id>5</id><name>18th &amp; Hayes St</name><terminalName>31004</terminalName><lastCommWithServer>1363905960858</lastCommWithServer><lat>38.8573</lat><long>-77.0574</long><installed>true</installed><locked>false</locked><installDate>1284464880000</installDate><removalDate/><temporary>false</temporary><public>true</public><nbBikes>5</nbBikes><nbEmptyDocks>5</nbEmptyDocks><latestUpdateTime>1363905959662</latestUpdateTime></station><station><id>6</id><name>15th &amp; Hayes St</name><terminalName>31005</terminalName><lastCommWithServer>1363905885525</lastCommWithServer><lat>38.8604</lat><long>-77.0603</long><installed>true</installed><locked>false</locked><installDate>1284464940000</installDate><removalDate/><temporary>false</temporary><public>true</public><nbBikes>6</nbBikes><nbEmptyDocks>5</nbEmptyDocks><latestUpdateTime>1363893312229</latestUpdateTime></station><station><id>7</id><name>S Joyce &amp; Army Navy Dr</name><terminalName>31006</terminalName><lastCommWithServer>1363906006189</lastCommWithServer><lat>38.8637</lat><long>-77.0633</long><installed>true</installed><locked>false</locked><installDate>1284464940000</installDate><removalDate/><temporary>false</temporary><public>true</public><nbBikes>5</nbBikes><nbEmptyDocks>6</nbEmptyDocks><latestUpdateTime>1363905039795</latestUpdateTime></station><station><id>8</id><name>Crystal City Metro / 18th &amp; Bell St</name><terminalName>31007</terminalName><lastCommWithServer>1363906041393</lastCommWithServer><lat>38.8573</lat><long>-77.0511</long><installed>true</installed><locked>false</locked><installDate>1284465000000</installDate><removalDate/><temporary>false</temporary><public>true</public><nbBikes>1</nbBikes><nbEmptyDocks>18</nbEmptyDocks><latestUpdateTime>1363905816010</latestUpdateTime></station><station><id>9</id><name>12th &amp; Army Navy Dr</name><terminalName>31008</terminalName><lastCommWithServer>1363905845340</lastCommWithServer><lat>38.8629</lat><long>-77.0528</long><installed>true</installed><locked>false</locked><installDate>1284465000000</installDate><removalDate/><temporary>false</temporary><public>true</public><nbBikes>7</nbBikes><nbEmptyDocks>3</nbEmptyDocks><latestUpdateTime>1363904800760</latestUpdateTime></station><station><id>10</id><name>27th &amp; Crystal Dr</name><terminalName>31009</terminalName><lastCommWithServer>1363905947793</lastCommWithServer><lat>38.848441</lat><long>-77.051516</long><installed>true</installed><locked>false</locked><installDate>1284465060000</installDate><removalDate/><temporary>false</temporary><public>true</public><nbBikes>1</nbBikes><nbEmptyDocks>10</nbEmptyDocks><latestUpdateTime>1363905464156</latestUpdateTime></station><station><id>11</id><name>S Glebe &amp; Potomac Ave</name><terminalName>31010</terminalName><lastCommWithServer>1363906051889</lastCommWithServer><lat>38.8426</lat><long>-77.0502</long><installed>true</installed><locked>false</locked><installDate>1284465120000</installDate><removalDate/><temporary>false</temporary><public>true</public><nbBikes>5</nbBikes><nbEmptyDocks>6</nbEmptyDocks><latestUpdateTime>1363902929071</latestUpdateTime></station><station><id>12</id><name>23rd &amp; Crystal Dr</name><terminalName>31011</terminalName><lastCommWithServer>1363905840490</lastCommWithServer><lat>38.8533</lat><long>-77.0498</long><installed>true</installed><locked>false</locked><installDate>1284465120000</installDate><removalDate/><temporary>false</temporary><public>true</public><nbBikes>8</nbBikes><nbEmptyDocks>5</nbEmptyDocks><latestUpdateTime>1363903542826</latestUpdateTime></station><station><id>13</id><name>26th &amp; Crystal Dr</name><terminalName>31012</terminalName><lastCommWithServer>1363906043957</lastCommWithServer><lat>38.8518</lat><long>-77.0498</long><installed>true</installed><locked>false</locked><installDate>1284465300000</installDate><removalDate/><temporary>false</temporary><public>true</public><nbBikes>1</nbBikes><nbEmptyDocks>10</nbEmptyDocks><latestUpdateTime>1363904694975</latestUpdateTime></station><station><id>14</id><name>19th St &amp; Pennsylvania Ave NW</name><terminalName>31100</terminalName><lastCommWithServer>1363905997084</lastCommWithServer><lat>38.9003</lat><long>-77.0429</long><installed>true</installed><locked>false</locked><installDate>1284465360000</installDate><removalDate/><temporary>false</temporary><public>true</public><nbBikes>2</nbBikes><nbEmptyDocks>13</nbEmptyDocks><latestUpdateTime>1363905629351</latestUpdateTime></station><station><id>15</id><name>14th &amp; V St NW</name><terminalName>31101</terminalName><lastCommWithServer>1363905921241</lastCommWithServer><lat>38.9176</lat><long>-77.0321</long><installed>true</installed><locked>false</locked><installDate>1284465420000</installDate><removalDate/><temporary>false</temporary><public>true</public><nbBikes>26</nbBikes><nbEmptyDocks>1</nbEmptyDocks><latestUpdateTime>1363905194910</latestUpdateTime></station><station><id>16</id><name>11th &amp; Kenyon St NW</name><terminalName>31102</terminalName><lastCommWithServer>1363905868885</lastCommWithServer><lat>38.929464</lat><long>-77.027822</long><installed>true</installed><locked>false</locked><installDate>1286539080000</installDate><removalDate/><temporary>false</temporary><public>true</public><nbBikes>11</nbBikes><nbEmptyDocks>16</nbEmptyDocks><latestUpdateTime>1363905624558</latestUpdateTime></station><station><id>17</id><name>16th &amp; Harvard St NW</name><terminalName>31103</terminalName><lastCommWithServer>1363905972889</lastCommWithServer><lat>38.926088</lat><long>-77.036536</long><installed>true</installed><locked>false</locked><installDate>1284465480000</installDate><removalDate/><temporary>false</temporary><public>true</public><nbBikes>21</nbBikes><nbEmptyDocks>12</nbEmptyDocks><latestUpdateTime>1363905970170</latestUpdateTime></station><station><id>18</id><name>Adams Mill &amp; Columbia Rd NW</name><terminalName>31104</terminalName><lastCommWithServer>1363905894526</lastCommWithServer><lat>38.922925</lat><long>-77.042581</long><installed>true</installed><locked>false</locked><installDate>1284465540000</installDate><removalDate/><temporary>false</temporary><public>true</public><nbBikes>8</nbBikes><nbEmptyDocks>7</nbEmptyDocks><latestUpdateTime>1363905651857</latestUpdateTime></station><station><id>19</id><name>14th &amp; Harvard St NW</name><terminalName>31105</terminalName><lastCommWithServer>1363905832142</lastCommWithServer><lat>38.9268</lat><long>-77.0322</long><installed>true</installed><locked>false</locked><installDate>1284465540000</installDate><removalDate/><temporary>false</temporary><public>true</public><nbBikes>8</nbBikes><nbEmptyDocks>11</nbEmptyDocks><latestUpdateTime>1363905830843</latestUpdateTime></station><station><id>20</id><name>Calvert St &amp; Woodley Pl NW</name><terminalName>31106</terminalName><lastCommWithServer>1363905990251</lastCommWithServer><lat>38.9236</lat><long>-77.0501</long><installed>true</installed><locked>false</locked><installDate>1284465600000</installDate><removalDate/><temporary>false</temporary><public>true</public><nbBikes>0</nbBikes><nbEmptyDocks>23</nbEmptyDocks><latestUpdateTime>1363903817053</latestUpdateTime></station><station><id>21</id><name>Lamont &amp; Mt Pleasant NW</name><terminalName>31107</terminalName><lastCommWithServer>1363905987369</lastCommWithServer><lat>38.9319</lat><long>-77.0388</long><installed>true</installed><locked>false</locked><installDate>1284465600000</installDate><removalDate/><temporary>false</temporary><public>true</public><nbBikes>17</nbBikes><nbEmptyDocks>2</nbEmptyDocks><latestUpdateTime>1363905742605</latestUpdateTime></station><station><id>22</id><name>4th &amp; M St SW</name><terminalName>31108</terminalName><lastCommWithServer>1363905987708</lastCommWithServer><lat>38.8767</lat><long>-77.0178</long><installed>true</installed><locked>false</locked><installDate>1284465660000</installDate><removalDate/><temporary>false</temporary><public>true</public><nbBikes>15</nbBikes><nbEmptyDocks>4</nbEmptyDocks><latestUpdateTime>1363905985073</latestUpdateTime></station><station><id>23</id><name>15th &amp; P St NW</name><terminalName>31201</terminalName><lastCommWithServer>1363905944129</lastCommWithServer><lat>38.90985</lat><long>-77.034438</long><installed>true</installed><locked>false</locked><installDate>1284465660000</installDate><removalDate/><temporary>false</temporary><public>true</public><nbBikes>19</nbBikes><nbEmptyDocks>0</nbEmptyDocks><latestUpdateTime>1363905701279</latestUpdateTime></station><station><id>24</id><name>14th &amp; R St NW</name><terminalName>31202</terminalName><lastCommWithServer>1363905992774</lastCommWithServer><lat>38.912682</lat><long>-77.031681</long><installed>true</installed><locked>false</locked><installDate>1284465720000</installDate><removalDate/><temporary>false</temporary><public>true</public><nbBikes>13</nbBikes><nbEmptyDocks>2</nbEmptyDocks><latestUpdateTime>1363905991317</latestUpdateTime></station><station><id>25</id><name>14th &amp; Rhode Island Ave NW</name><terminalName>31203</terminalName><lastCommWithServer>1363906031073</lastCommWithServer><lat>38.9086</lat><long>-77.0323</long><installed>true</installed><locked>false</locked><installDate>1284465780000</installDate><removalDate/><temporary>false</temporary><public>true</public><nbBikes>15</nbBikes><nbEmptyDocks>8</nbEmptyDocks><latestUpdateTime>1363906029986</latestUpdateTime></station><station><id>26</id><name>20th &amp; E St NW</name><terminalName>31204</terminalName><lastCommWithServer>1363906002911</lastCommWithServer><lat>38.8963</lat><long>-77.045</long><installed>true</installed><locked>false</locked><installDate>1284465840000</installDate><removalDate/><temporary>false</temporary><public>true</public><nbBikes>9</nbBikes><nbEmptyDocks>6</nbEmptyDocks><latestUpdateTime>1363905714109</latestUpdateTime></station><station><id>27</id><name>21st &amp; I St NW</name><terminalName>31205</terminalName><lastCommWithServer>1363906034305</lastCommWithServer><lat>38.9008</lat><long>-77.047</long><installed>true</installed><locked>false</locked><installDate>1283861040000</installDate><removalDate/><temporary>false</temporary><public>true</public><nbBikes>15</nbBikes><nbEmptyDocks>20</nbEmptyDocks><latestUpdateTime>1363906031908</latestUpdateTime></station><station><id>28</id><name>Georgia &amp; New Hampshire Ave NW</name><terminalName>31400</terminalName><lastCommWithServer>1363906057618</lastCommWithServer><lat>38.936043</lat><long>-77.024649</long><installed>true</installed><locked>false</locked><installDate>1284465900000</installDate><removalDate/><temporary>false</temporary><public>true</public><nbBikes>12</nbBikes><nbEmptyDocks>3</nbEmptyDocks><latestUpdateTime>1363905464789</latestUpdateTime></station><station><id>29</id><name>14th St &amp; Spring Rd NW</name><terminalName>31401</terminalName><lastCommWithServer>1363906017668</lastCommWithServer><lat>38.9375</lat><long>-77.0328</long><installed>true</installed><locked>false</locked><installDate>1284465960000</installDate><removalDate/><temporary>false</temporary><public>true</public><nbBikes>8</nbBikes><nbEmptyDocks>3</nbEmptyDocks><latestUpdateTime>1363905666304</latestUpdateTime></station><station><id>30</id><name>John McCormack Dr &amp; Michigan Ave NE</name><terminalName>31502</terminalName><lastCommWithServer>1363905996101</lastCommWithServer><lat>38.9346</lat><long>-76.9955</long><installed>true</installed><locked>false</locked><installDate>1284465960000</installDate><removalDate/><temporary>false</temporary><public>true</public><nbBikes>7</nbBikes><nbEmptyDocks>4</nbEmptyDocks><latestUpdateTime>1363905995369</latestUpdateTime></station><station><id>31</id><name>5th St &amp; K St NW</name><terminalName>31600</terminalName><lastCommWithServer>1363905842241</lastCommWithServer><lat>38.90304</lat><long>-77.019027</long><installed>true</installed><locked>false</locked><installDate>1284466020000</installDate><removalDate/><temporary>false</temporary><public>true</public><nbBikes>18</nbBikes><nbEmptyDocks>1</nbEmptyDocks><latestUpdateTime>1363905839689</latestUpdateTime></station><station><id>32</id><name>19th &amp; East Capitol St SE</name><terminalName>31601</terminalName><lastCommWithServer>1363905942028</lastCommWithServer><lat>38.8896</lat><long>-76.9769</long><installed>true</installed><locked>false</locked><installDate>1284466020000</installDate><removalDate/><temporary>false</temporary><public>true</public><nbBikes>13</nbBikes><nbEmptyDocks>2</nbEmptyDocks><latestUpdateTime>1363903904776</latestUpdateTime></station><station><id>33</id><name>Park Rd &amp; Holmead Pl NW</name><terminalName>31602</terminalName><lastCommWithServer>1363906025962</lastCommWithServer><lat>38.9308</lat><long>-77.0315</long><installed>true</installed><locked>false</locked><installDate>1284466080000</installDate><removalDate/><temporary>false</temporary><public>true</public><nbBikes>1</nbBikes><nbEmptyDocks>18</nbEmptyDocks><latestUpdateTime>1363905541712</latestUpdateTime></station><station><id>34</id><name>Good Hope &amp; Naylor Rd SE</name><terminalName>31700</terminalName><lastCommWithServer>1363905955571</lastCommWithServer><lat>38.8601</lat><long>-76.9672</long><installed>true</installed><locked>false</locked><installDate>1284466140000</installDate><removalDate/><temporary>false</temporary><public>true</public><nbBikes>5</nbBikes><nbEmptyDocks>5</nbEmptyDocks><latestUpdateTime>1363874729480</latestUpdateTime></station><station><id>35</id><name>Connecticut Ave &amp; Newark St NW / Cleveland Park</name><terminalName>31305</terminalName><lastCommWithServer>1363905967930</lastCommWithServer><lat>38.934267</lat><long>-77.057979</long><installed>true</installed><locked>false</locked><installDate>1289241840000</installDate><removalDate/><temporary>false</temporary><public>true</public><nbBikes>11</nbBikes><nbEmptyDocks>0</nbEmptyDocks><latestUpdateTime>1363905483281</latestUpdateTime></station><station><id>36</id><name>Randle Circle &amp; Minnesota Ave NE</name><terminalName>31702</terminalName><lastCommWithServer>1363905845944</lastCommWithServer><lat>38.878</lat><long>-76.9607</long><installed>true</installed><locked>false</locked><installDate>1284466200000</installDate><removalDate/><temporary>false</temporary><public>true</public><nbBikes>6</nbBikes><nbEmptyDocks>5</nbEmptyDocks><latestUpdateTime>1363845257927</latestUpdateTime></station><station><id>37</id><name>Minnesota Ave Metro/DOES</name><terminalName>31703</terminalName><lastCommWithServer>1363905953157</lastCommWithServer><lat>38.897063</lat><long>-76.947446</long><installed>true</installed><locked>false</locked><installDate>1284466200000</installDate><removalDate/><temporary>false</temporary><public>true</public><nbBikes>5</nbBikes><nbEmptyDocks>6</nbEmptyDocks><latestUpdateTime>1363845277170</latestUpdateTime></station><station><id>38</id><name>Nannie Helen Burroughs &amp; Minnesota Ave NE</name><terminalName>31704</terminalName><lastCommWithServer>1321368142345</lastCommWithServer><lat>38.9016</lat><long>-76.9422</long><installed>false</installed><locked>true</locked><installDate>1284466260000</installDate><removalDate>1298396940000</removalDate><temporary>false</temporary><public>true</public><nbBikes>0</nbBikes><nbEmptyDocks>0</nbEmptyDocks><latestUpdateTime/></station><station><id>39</id><name>Anacostia Metro</name><terminalName>31801</terminalName><lastCommWithServer>1363905934403</lastCommWithServer><lat>38.8624</lat><long>-76.9949</long><installed>true</installed><locked>false</locked><installDate>1284466260000</installDate><removalDate/><temporary>false</temporary><public>true</public><nbBikes>4</nbBikes><nbEmptyDocks>7</nbEmptyDocks><latestUpdateTime>1363886024186</latestUpdateTime></station><station><id>40</id><name>Good Hope Rd &amp; MLK Ave SE</name><terminalName>31802</terminalName><lastCommWithServer>1363905941241</lastCommWithServer><lat>38.867373</lat><long>-76.988039</long><installed>true</installed><locked>false</locked><installDate>1305288720000</installDate><removalDate/><temporary>false</temporary><public>true</public><nbBikes>8</nbBikes><nbEmptyDocks>3</nbEmptyDocks><latestUpdateTime>1363904732985</latestUpdateTime></station><station><id>41</id><name>19th &amp; E Street NW</name><terminalName>31206</terminalName><lastCommWithServer>1363905950729</lastCommWithServer><lat>38.8952</lat><long>-77.0436</long><installed>true</installed><locked>false</locked><installDate>1284545040000</installDate><removalDate/><temporary>false</temporary><public>true</public><nbBikes>0</nbBikes><nbEmptyDocks>11</nbEmptyDocks><latestUpdateTime>1363903054929</latestUpdateTime></station><station><id>42</id><name>4th St &amp; Rhode Island Ave NE</name><terminalName>31500</terminalName><lastCommWithServer>1363906041468</lastCommWithServer><lat>38.919488</lat><long>-77.000624</long><installed>true</installed><locked>false</locked><installDate>1289970000000</installDate><removalDate/><temporary>false</temporary><public>true</public><nbBikes>10</nbBikes><nbEmptyDocks>1</nbEmptyDocks><latestUpdateTime>1363903276574</latestUpdateTime></station><station><id>43</id><name>10th &amp; U St NW</name><terminalName>31111</terminalName><lastCommWithServer>1363905869296</lastCommWithServer><lat>38.9172</lat><long>-77.0259</long><installed>true</installed><locked>false</locked><installDate>1285822380000</installDate><removalDate/><temporary>false</temporary><public>true</public><nbBikes>6</nbBikes><nbEmptyDocks>9</nbEmptyDocks><latestUpdateTime>1363905625367</latestUpdateTime></station><station><id>44</id><name>Georgia Ave and Fairmont St NW</name><terminalName>31207</terminalName><lastCommWithServer>1363905959970</lastCommWithServer><lat>38.9249</lat><long>-77.0222</long><installed>true</installed><locked>false</locked><installDate>1285041600000</installDate><removalDate/><temporary>false</temporary><public>true</public><nbBikes>8</nbBikes><nbEmptyDocks>3</nbEmptyDocks><latestUpdateTime>1363903772913</latestUpdateTime></station><station><id>45</id><name>1st &amp; N St  SE</name><terminalName>31209</terminalName><lastCommWithServer>1363905983733</lastCommWithServer><lat>38.8743</lat><long>-77.0057</long><installed>true</installed><locked>false</locked><installDate>1285041600000</installDate><removalDate/><temporary>false</temporary><public>true</public><nbBikes>8</nbBikes><nbEmptyDocks>15</nbEmptyDocks><latestUpdateTime>1363891194547</latestUpdateTime></station><station><id>46</id><name>20th St &amp; Florida Ave NW</name><terminalName>31110</terminalName><lastCommWithServer>1363906048192</lastCommWithServer><lat>38.9154</lat><long>-77.0446</long><installed>true</installed><locked>false</locked><installDate>1285217520000</installDate><removalDate/><temporary>false</temporary><public>true</public><nbBikes>12</nbBikes><nbEmptyDocks>3</nbEmptyDocks><latestUpdateTime>1363906047016</latestUpdateTime></station><station><id>47</id><name>7th &amp; T St NW</name><terminalName>31109</terminalName><lastCommWithServer>1363905873158</lastCommWithServer><lat>38.9155</lat><long>-77.0222</long><installed>true</installed><locked>false</locked><installDate>1285735680000</installDate><removalDate/><temporary>false</temporary><public>true</public><nbBikes>5</nbBikes><nbEmptyDocks>10</nbEmptyDocks><latestUpdateTime>1363905629257</latestUpdateTime></station><station><id>48</id><name>23rd &amp; Eads</name><terminalName>31013</terminalName><lastCommWithServer>1363905948633</lastCommWithServer><lat>38.853613</lat><long>-77.053535</long><installed>true</installed><locked>false</locked><installDate>1287562620000</installDate><removalDate/><temporary>false</temporary><public>true</public><nbBikes>4</nbBikes><nbEmptyDocks>7</nbEmptyDocks><latestUpdateTime>1363905946116</latestUpdateTime></station><station><id>49</id><name>M St &amp; New Jersey Ave SE</name><terminalName>31208</terminalName><lastCommWithServer>1363905880618</lastCommWithServer><lat>38.8763</lat><long>-77.0037</long><installed>true</installed><locked>false</locked><installDate>1285041600000</installDate><removalDate/><temporary>false</temporary><public>true</public><nbBikes>1</nbBikes><nbEmptyDocks>16</nbEmptyDocks><latestUpdateTime>1363905879166</latestUpdateTime></station><station><id>51</id><name>Massachusetts Ave &amp; Dupont Circle NW</name><terminalName>31200</terminalName><lastCommWithServer>1363905984428</lastCommWithServer><lat>38.9101</lat><long>-77.0444</long><installed>true</installed><locked>false</locked><installDate>1284523200000</installDate><removalDate/><temporary>false</temporary><public>true</public><nbBikes>27</nbBikes><nbEmptyDocks>14</nbEmptyDocks><latestUpdateTime>1363905983870</latestUpdateTime></station><station><id>52</id><name>1st &amp; M St NE</name><terminalName>31603</terminalName><lastCommWithServer>1363905834160</lastCommWithServer><lat>38.9057</lat><long>-77.0056</long><installed>true</installed><locked>false</locked><installDate>1287115200000</installDate><removalDate/><temporary>false</temporary><public>true</public><nbBikes>0</nbBikes><nbEmptyDocks>15</nbEmptyDocks><latestUpdateTime>1363905418477</latestUpdateTime></station><station><id>53</id><name>21st &amp; M St NW</name><terminalName>31212</terminalName><lastCommWithServer>1363906038423</lastCommWithServer><lat>38.9054</lat><long>-77.0471</long><installed>true</installed><locked>false</locked><installDate>1285041600000</installDate><removalDate/><temporary>false</temporary><public>true</public><nbBikes>9</nbBikes><nbEmptyDocks>10</nbEmptyDocks><latestUpdateTime>1363906036317</latestUpdateTime></station><station><id>54</id><name>17th &amp; K St NW [formerly 17th &amp; L St NW]</name><terminalName>31213</terminalName><lastCommWithServer>1363905861802</lastCommWithServer><lat>38.90276</lat><long>-77.03863</long><installed>true</installed><locked>false</locked><installDate>1306236960000</installDate><removalDate/><temporary>false</temporary><public>true</public><nbBikes>1</nbBikes><nbEmptyDocks>14</nbEmptyDocks><latestUpdateTime>1363904736102</latestUpdateTime></station><station><id>55</id><name>4th St &amp; Massachusetts Ave NW</name><terminalName>31604</terminalName><lastCommWithServer>1363905919415</lastCommWithServer><lat>38.9003</lat><long>-77.016</long><installed>true</installed><locked>false</locked><installDate>1287028800000</installDate><removalDate/><temporary>false</temporary><public>true</public><nbBikes>3</nbBikes><nbEmptyDocks>12</nbEmptyDocks><latestUpdateTime>1363905918288</latestUpdateTime></station><station><id>56</id><name>3rd &amp; D St SE</name><terminalName>31605</terminalName><lastCommWithServer>1363905936596</lastCommWithServer><lat>38.8851</lat><long>-77.0023</long><installed>true</installed><locked>false</locked><installDate>1287201600000</installDate><removalDate/><temporary>false</temporary><public>true</public><nbBikes>3</nbBikes><nbEmptyDocks>8</nbEmptyDocks><latestUpdateTime>1363905694320</latestUpdateTime></station><station><id>57</id><name>Potomac &amp; Pennsylvania Ave SE</name><terminalName>31606</terminalName><lastCommWithServer>1363905877477</lastCommWithServer><lat>38.8803</lat><long>-76.9862</long><installed>true</installed><locked>false</locked><installDate>1287460800000</installDate><removalDate/><temporary>false</temporary><public>true</public><nbBikes>10</nbBikes><nbEmptyDocks>5</nbEmptyDocks><latestUpdateTime>1363905391508</latestUpdateTime></station><station><id>58</id><name>14th &amp; D St SE</name><terminalName>31607</terminalName><lastCommWithServer>1363906017616</lastCommWithServer><lat>38.884</lat><long>-76.9861</long><installed>true</installed><locked>false</locked><installDate>1287374400000</installDate><removalDate/><temporary>false</temporary><public>true</public><nbBikes>6</nbBikes><nbEmptyDocks>9</nbEmptyDocks><latestUpdateTime>1363905050436</latestUpdateTime></station><station><id>59</id><name>17th &amp; Corcoran St NW</name><terminalName>31214</terminalName><lastCommWithServer>1363905951592</lastCommWithServer><lat>38.9121</lat><long>-77.0387</long><installed>true</installed><locked>false</locked><installDate>1294078980000</installDate><removalDate/><temporary>false</temporary><public>true</public><nbBikes>10</nbBikes><nbEmptyDocks>9</nbEmptyDocks><latestUpdateTime>1363905949567</latestUpdateTime></station><station><id>60</id><name>Van Ness Metro / UDC</name><terminalName>31300</terminalName><lastCommWithServer>1363905959360</lastCommWithServer><lat>38.944551</lat><long>-77.063896</long><installed>true</installed><locked>false</locked><installDate>1289624400000</installDate><removalDate/><temporary>false</temporary><public>true</public><nbBikes>12</nbBikes><nbEmptyDocks>3</nbEmptyDocks><latestUpdateTime>1363905715507</latestUpdateTime></station><station><id>61</id><name>Florida Ave &amp; R St NW</name><terminalName>31503</terminalName><lastCommWithServer>1363905933871</lastCommWithServer><lat>38.9126</lat><long>-77.0135</long><installed>true</installed><locked>false</locked><installDate>1290056400000</installDate><removalDate/><temporary>false</temporary><public>true</public><nbBikes>12</nbBikes><nbEmptyDocks>3</nbEmptyDocks><latestUpdateTime>1363904966840</latestUpdateTime></station><station><id>62</id><name>8th &amp; Eye St SE / Barracks Row</name><terminalName>31608</terminalName><lastCommWithServer>1363906054251</lastCommWithServer><lat>38.8792</lat><long>-76.9953</long><installed>true</installed><locked>false</locked><installDate>1287374400000</installDate><removalDate/><temporary>false</temporary><public>true</public><nbBikes>2</nbBikes><nbEmptyDocks>9</nbEmptyDocks><latestUpdateTime>1363905328285</latestUpdateTime></station><station><id>63</id><name>Ward Circle / American University</name><terminalName>31301</terminalName><lastCommWithServer>1363905825490</lastCommWithServer><lat>38.938736</lat><long>-77.087171</long><installed>true</installed><locked>false</locked><installDate>1289538000000</installDate><removalDate/><temporary>false</temporary><public>true</public><nbBikes>9</nbBikes><nbEmptyDocks>6</nbEmptyDocks><latestUpdateTime>1363905341735</latestUpdateTime></station><station><id>64</id><name>Idaho Ave &amp; Newark St NW [on 2nd District patio]</name><terminalName>31302</terminalName><lastCommWithServer>1363905998311</lastCommWithServer><lat>38.934751</lat><long>-77.074647</long><installed>true</installed><locked>false</locked><installDate>1289970000000</installDate><removalDate/><temporary>false</temporary><public>true</public><nbBikes>8</nbBikes><nbEmptyDocks>7</nbEmptyDocks><latestUpdateTime>1363905032043</latestUpdateTime></station><station><id>65</id><name>14th St Heights / 14th &amp; Crittenden St NW</name><terminalName>31402</terminalName><lastCommWithServer>1363905850387</lastCommWithServer><lat>38.947774</lat><long>-77.032818</long><installed>true</installed><locked>false</locked><installDate>1289970000000</installDate><removalDate/><temporary>false</temporary><public>true</public><nbBikes>9</nbBikes><nbEmptyDocks>2</nbEmptyDocks><latestUpdateTime>1363904196460</latestUpdateTime></station><station><id>66</id><name>Anacostia Library</name><terminalName>31804</terminalName><lastCommWithServer>1363905901506</lastCommWithServer><lat>38.865784</lat><long>-76.9784</long><installed>true</installed><locked>false</locked><installDate>1288584000000</installDate><removalDate/><temporary>false</temporary><public>true</public><nbBikes>2</nbBikes><nbEmptyDocks>9</nbEmptyDocks><latestUpdateTime>1363889937587</latestUpdateTime></station><station><id>67</id><name>Pennsylvania &amp; Minnesota Ave SE</name><terminalName>31805</terminalName><lastCommWithServer>1363905951303</lastCommWithServer><lat>38.873057</lat><long>-76.971015</long><installed>true</installed><locked>false</locked><installDate>1288584000000</installDate><removalDate/><temporary>false</temporary><public>true</public><nbBikes>8</nbBikes><nbEmptyDocks>2</nbEmptyDocks><latestUpdateTime>1363758824723</latestUpdateTime></station><station><id>68</id><name>Eastern Market / 7th &amp; North Carolina Ave SE</name><terminalName>31610</terminalName><lastCommWithServer>1363905897871</lastCommWithServer><lat>38.886952</lat><long>-76.996806</long><installed>true</installed><locked>false</locked><installDate>1282363200000</installDate><removalDate/><temporary>false</temporary><public>true</public><nbBikes>10</nbBikes><nbEmptyDocks>5</nbEmptyDocks><latestUpdateTime>1363905413830</latestUpdateTime></station><station><id>69</id><name>McPherson Square / 14th &amp; H St NW</name><terminalName>31216</terminalName><lastCommWithServer>1363905869163</lastCommWithServer><lat>38.899641</lat><long>-77.032005</long><installed>true</installed><locked>false</locked><installDate>1284436800000</installDate><removalDate/><temporary>false</temporary><public>true</public><nbBikes>6</nbBikes><nbEmptyDocks>13</nbEmptyDocks><latestUpdateTime>1363905866549</latestUpdateTime></station><station><id>70</id><name>Benning Branch Library</name><terminalName>31705</terminalName><lastCommWithServer>1363905865533</lastCommWithServer><lat>38.894</lat><long>-76.947974</long><installed>true</installed><locked>false</locked><installDate>1288584000000</installDate><removalDate/><temporary>false</temporary><public>true</public><nbBikes>7</nbBikes><nbEmptyDocks>4</nbEmptyDocks><latestUpdateTime>1363832129584</latestUpdateTime></station><station><id>71</id><name>USDA / 12th &amp; Independence Ave SW</name><terminalName>31217</terminalName><lastCommWithServer>1363906053959</lastCommWithServer><lat>38.887237</lat><long>-77.028226</long><installed>true</installed><locked>false</locked><installDate>1286297580000</installDate><removalDate/><temporary>false</temporary><public>true</public><nbBikes>10</nbBikes><nbEmptyDocks>29</nbEmptyDocks><latestUpdateTime>1363905809998</latestUpdateTime></station><station><id>72</id><name>Georgetown Harbor / 30th St NW</name><terminalName>31215</terminalName><lastCommWithServer>1363905954361</lastCommWithServer><lat>38.9022212</lat><long>-77.059219</long><installed>true</installed><locked>false</locked><installDate>1286300580000</installDate><removalDate/><temporary>false</temporary><public>true</public><nbBikes>0</nbBikes><nbEmptyDocks>19</nbEmptyDocks><latestUpdateTime>1363904746280</latestUpdateTime></station><station><id>73</id><name>12th &amp; Newton St NE</name><terminalName>31501</terminalName><lastCommWithServer>1363905895775</lastCommWithServer><lat>38.933668</lat><long>-76.991016</long><installed>true</installed><locked>false</locked><installDate>1286306220000</installDate><removalDate/><temporary>false</temporary><public>true</public><nbBikes>8</nbBikes><nbEmptyDocks>3</nbEmptyDocks><latestUpdateTime>1363845280459</latestUpdateTime></station><station><id>74</id><name>US Dept of State / Virginia Ave &amp; 21st St NW</name><terminalName>31220</terminalName><lastCommWithServer>1363905968286</lastCommWithServer><lat>38.894919</lat><long>-77.046587</long><installed>true</installed><locked>false</locked><installDate>1286661900000</installDate><removalDate/><temporary>false</temporary><public>true</public><nbBikes>4</nbBikes><nbEmptyDocks>11</nbEmptyDocks><latestUpdateTime>1363905484042</latestUpdateTime></station><station><id>75</id><name>L'Enfant Plaza / 7th &amp; C St SW</name><terminalName>31218</terminalName><lastCommWithServer>1363905999915</lastCommWithServer><lat>38.886266</lat><long>-77.022241</long><installed>true</installed><locked>false</locked><installDate>1286410980000</installDate><removalDate/><temporary>false</temporary><public>true</public><nbBikes>14</nbBikes><nbEmptyDocks>1</nbEmptyDocks><latestUpdateTime>1363905998527</latestUpdateTime></station><station><id>76</id><name>10th St &amp; Constitution Ave NW</name><terminalName>31219</terminalName><lastCommWithServer>1363905882200</lastCommWithServer><lat>38.893028</lat><long>-77.026013</long><installed>true</installed><locked>false</locked><installDate>1286497620000</installDate><removalDate/><temporary>false</temporary><public>true</public><nbBikes>10</nbBikes><nbEmptyDocks>21</nbEmptyDocks><latestUpdateTime>1363904914706</latestUpdateTime></station><station><id>77</id><name>Kennedy Center</name><terminalName>31211</terminalName><lastCommWithServer>1363905950395</lastCommWithServer><lat>38.895184</lat><long>-77.054845</long><installed>true</installed><locked>false</locked><installDate>1286325060000</installDate><removalDate/><temporary>false</temporary><public>true</public><nbBikes>6</nbBikes><nbEmptyDocks>5</nbEmptyDocks><latestUpdateTime>1363904659190</latestUpdateTime></station><station><id>78</id><name>Eastern Market Metro / Pennsylvania Ave &amp; 7th St SE</name><terminalName>31613</terminalName><lastCommWithServer>1363905880071</lastCommWithServer><lat>38.884</lat><long>-76.995397</long><installed>true</installed><locked>false</locked><installDate>1286411820000</installDate><removalDate/><temporary>false</temporary><public>true</public><nbBikes>8</nbBikes><nbEmptyDocks>11</nbEmptyDocks><latestUpdateTime>1363905637042</latestUpdateTime></station><station><id>79</id><name>18th &amp; M St NW</name><terminalName>31221</terminalName><lastCommWithServer>1363905909362</lastCommWithServer><lat>38.904742</lat><long>-77.041606</long><installed>true</installed><locked>false</locked><installDate>1286458140000</installDate><removalDate/><temporary>false</temporary><public>true</public><nbBikes>6</nbBikes><nbEmptyDocks>13</nbEmptyDocks><latestUpdateTime>1363905328323</latestUpdateTime></station><station><id>80</id><name>Tenleytown / Wisconsin Ave &amp; Albemarle St NW</name><terminalName>31303</terminalName><lastCommWithServer>1363905922920</lastCommWithServer><lat>38.947607</lat><long>-77.079382</long><installed>true</installed><locked>false</locked><installDate>1287150300000</installDate><removalDate/><temporary>false</temporary><public>true</public><nbBikes>10</nbBikes><nbEmptyDocks>5</nbEmptyDocks><latestUpdateTime>1363905920261</latestUpdateTime></station><station><id>81</id><name>13th &amp; H St NE</name><terminalName>31611</terminalName><lastCommWithServer>1363906015299</lastCommWithServer><lat>38.9003</lat><long>-76.9882</long><installed>true</installed><locked>false</locked><installDate>1286547000000</installDate><removalDate/><temporary>false</temporary><public>true</public><nbBikes>12</nbBikes><nbEmptyDocks>15</nbEmptyDocks><latestUpdateTime>1363905770740</latestUpdateTime></station><station><id>82</id><name>5th &amp; F St NW</name><terminalName>31620</terminalName><lastCommWithServer>1363905961845</lastCommWithServer><lat>38.897222</lat><long>-77.019347</long><installed>true</installed><locked>false</locked><installDate>1286492280000</installDate><removalDate/><temporary>false</temporary><public>true</public><nbBikes>1</nbBikes><nbEmptyDocks>30</nbEmptyDocks><latestUpdateTime>1363905719229</latestUpdateTime></station><station><id>83</id><name>New York Ave &amp; 15th St NW</name><terminalName>31222</terminalName><lastCommWithServer>1363905938088</lastCommWithServer><lat>38.8991</lat><long>-77.0337</long><installed>true</installed><locked>false</locked><installDate>1286631960000</installDate><removalDate/><temporary>false</temporary><public>true</public><nbBikes>9</nbBikes><nbEmptyDocks>6</nbEmptyDocks><latestUpdateTime>1363905936711</latestUpdateTime></station><station><id>84</id><name>Convention Center / 7th &amp; M St NW</name><terminalName>31223</terminalName><lastCommWithServer>1363906022388</lastCommWithServer><lat>38.90572</lat><long>-77.022264</long><installed>true</installed><locked>false</locked><installDate>1286631960000</installDate><removalDate/><temporary>false</temporary><public>true</public><nbBikes>11</nbBikes><nbEmptyDocks>8</nbEmptyDocks><latestUpdateTime>1363906021552</latestUpdateTime></station><station><id>85</id><name>Harvard St &amp; Adams Mill Rd NW</name><terminalName>31112</terminalName><lastCommWithServer>1363905901536</lastCommWithServer><lat>38.927872</lat><long>-77.043358</long><installed>true</installed><locked>false</locked><installDate>1294164840000</installDate><removalDate/><temporary>false</temporary><public>true</public><nbBikes>5</nbBikes><nbEmptyDocks>10</nbEmptyDocks><latestUpdateTime>1363905661771</latestUpdateTime></station><station><id>86</id><name>19th &amp; L St NW</name><terminalName>31224</terminalName><lastCommWithServer>1363906007900</lastCommWithServer><lat>38.903407</lat><long>-77.043648</long><installed>true</installed><locked>false</locked><installDate>1287182880000</installDate><removalDate/><temporary>false</temporary><public>true</public><nbBikes>9</nbBikes><nbEmptyDocks>6</nbEmptyDocks><latestUpdateTime>1363906007034</latestUpdateTime></station><station><id>87</id><name>C &amp; O Canal &amp; Wisconsin Ave NW</name><terminalName>31225</terminalName><lastCommWithServer>1363905942477</lastCommWithServer><lat>38.90375</lat><long>-77.06269</long><installed>true</installed><locked>false</locked><installDate>1287460800000</installDate><removalDate/><temporary>false</temporary><public>true</public><nbBikes>10</nbBikes><nbEmptyDocks>12</nbEmptyDocks><latestUpdateTime>1363905698363</latestUpdateTime></station><station><id>88</id><name>7th &amp; Water St SW / SW Waterfront</name><terminalName>31609</terminalName><lastCommWithServer>1363905978818</lastCommWithServer><lat>38.878925</lat><long>-77.024016</long><installed>true</installed><locked>false</locked><installDate>1287720000000</installDate><removalDate/><temporary>false</temporary><public>true</public><nbBikes>2</nbBikes><nbEmptyDocks>17</nbEmptyDocks><latestUpdateTime>1363905977865</latestUpdateTime></station><station><id>89</id><name>D St &amp; Maryland Ave NE</name><terminalName>31612</terminalName><lastCommWithServer>1363906022823</lastCommWithServer><lat>38.894758</lat><long>-76.997114</long><installed>true</installed><locked>false</locked><installDate>1330094460000</installDate><removalDate/><temporary>false</temporary><public>true</public><nbBikes>15</nbBikes><nbEmptyDocks>8</nbEmptyDocks><latestUpdateTime>1363904573575</latestUpdateTime></station><station><id>90</id><name>34th St &amp; Wisconsin Ave NW</name><terminalName>31226</terminalName><lastCommWithServer>1363906032358</lastCommWithServer><lat>38.916442</lat><long>-77.0682</long><installed>true</installed><locked>false</locked><installDate>1287182760000</installDate><removalDate/><temporary>false</temporary><public>true</public><nbBikes>6</nbBikes><nbEmptyDocks>5</nbEmptyDocks><latestUpdateTime>1363906030226</latestUpdateTime></station><station><id>91</id><name>13th St &amp; New York Ave NW</name><terminalName>31227</terminalName><lastCommWithServer>1363905885520</lastCommWithServer><lat>38.900283</lat><long>-77.029822</long><installed>true</installed><locked>false</locked><installDate>1287416880000</installDate><removalDate/><temporary>false</temporary><public>true</public><nbBikes>1</nbBikes><nbEmptyDocks>22</nbEmptyDocks><latestUpdateTime>1363905160527</latestUpdateTime></station><station><id>92</id><name>8th &amp; H St NW</name><terminalName>31228</terminalName><lastCommWithServer>1363906041661</lastCommWithServer><lat>38.8997</lat><long>-77.023086</long><installed>true</installed><locked>false</locked><installDate>1287115200000</installDate><removalDate/><temporary>false</temporary><public>true</public><nbBikes>11</nbBikes><nbEmptyDocks>22</nbEmptyDocks><latestUpdateTime>1363905798056</latestUpdateTime></station><station><id>93</id><name>10th &amp; Monroe St NE</name><terminalName>31504</terminalName><lastCommWithServer>1363905847578</lastCommWithServer><lat>38.932514</lat><long>-76.992889</long><installed>true</installed><locked>false</locked><installDate>1287096120000</installDate><removalDate/><temporary>false</temporary><public>true</public><nbBikes>5</nbBikes><nbEmptyDocks>6</nbEmptyDocks><latestUpdateTime>1363905604161</latestUpdateTime></station><station><id>94</id><name>Eckington Pl &amp; Q St NE</name><terminalName>31505</terminalName><lastCommWithServer>1363905986218</lastCommWithServer><lat>38.910972</lat><long>-77.00495</long><installed>true</installed><locked>false</locked><installDate>1287096120000</installDate><removalDate/><temporary>false</temporary><public>true</public><nbBikes>1</nbBikes><nbEmptyDocks>10</nbEmptyDocks><latestUpdateTime>1363900856838</latestUpdateTime></station><station><id>95</id><name>6th &amp; H St NE</name><terminalName>31615</terminalName><lastCommWithServer>1363905933943</lastCommWithServer><lat>38.900384</lat><long>-76.99831</long><installed>true</installed><locked>false</locked><installDate>1323696720000</installDate><removalDate/><temporary>false</temporary><public>true</public><nbBikes>18</nbBikes><nbEmptyDocks>5</nbEmptyDocks><latestUpdateTime>1363905294298</latestUpdateTime></station><station><id>96</id><name>3rd &amp; H St NE</name><terminalName>31616</terminalName><lastCommWithServer>1363905900877</lastCommWithServer><lat>38.900017</lat><long>-77.001967</long><installed>true</installed><locked>false</locked><installDate>1287096060000</installDate><removalDate/><temporary>false</temporary><public>true</public><nbBikes>3</nbBikes><nbEmptyDocks>8</nbEmptyDocks><latestUpdateTime>1363904691456</latestUpdateTime></station><station><id>97</id><name>Bladensburg Rd &amp; Benning Rd NE</name><terminalName>31617</terminalName><lastCommWithServer>1363905885654</lastCommWithServer><lat>38.900413</lat><long>-76.982872</long><installed>true</installed><locked>false</locked><installDate>1288200360000</installDate><removalDate/><temporary>false</temporary><public>true</public><nbBikes>5</nbBikes><nbEmptyDocks>10</nbEmptyDocks><latestUpdateTime>1363904919825</latestUpdateTime></station><station><id>98</id><name>4th &amp; East Capitol St NE</name><terminalName>31618</terminalName><lastCommWithServer>1363906008869</lastCommWithServer><lat>38.889955</lat><long>-77.000349</long><installed>true</installed><locked>false</locked><installDate>1287028800000</installDate><removalDate/><temporary>false</temporary><public>true</public><nbBikes>11</nbBikes><nbEmptyDocks>0</nbEmptyDocks><latestUpdateTime>1363906006215</latestUpdateTime></station><station><id>99</id><name>Lincoln Park / 13th &amp; East Capitol St NE </name><terminalName>31619</terminalName><lastCommWithServer>1363905965236</lastCommWithServer><lat>38.890461</lat><long>-76.988355</long><installed>true</installed><locked>false</locked><installDate>1288038900000</installDate><removalDate/><temporary>false</temporary><public>true</public><nbBikes>19</nbBikes><nbEmptyDocks>6</nbEmptyDocks><latestUpdateTime>1363905722339</latestUpdateTime></station><station><id>100</id><name>Branch &amp; Pennsylvania Ave SE</name><terminalName>31701</terminalName><lastCommWithServer>1363905892950</lastCommWithServer><lat>38.8692</lat><long>-76.9599</long><installed>true</installed><locked>false</locked><installDate>1309008600000</installDate><removalDate/><temporary>false</temporary><public>true</public><nbBikes>6</nbBikes><nbEmptyDocks>5</nbEmptyDocks><latestUpdateTime>1363758813368</latestUpdateTime></station><station><id>101</id><name>13th &amp; D St NE</name><terminalName>31622</terminalName><lastCommWithServer>1363905963589</lastCommWithServer><lat>38.894832</lat><long>-76.987633</long><installed>true</installed><locked>false</locked><installDate>1288114080000</installDate><removalDate/><temporary>false</temporary><public>true</public><nbBikes>17</nbBikes><nbEmptyDocks>14</nbEmptyDocks><latestUpdateTime>1363905961414</latestUpdateTime></station><station><id>102</id><name>New Hampshire Ave &amp; T St NW [formerly 16th &amp; U St NW]</name><terminalName>31229</terminalName><lastCommWithServer>1363905915186</lastCommWithServer><lat>38.91554</lat><long>-77.03818</long><installed>true</installed><locked>false</locked><installDate>1287178020000</installDate><removalDate/><temporary>false</temporary><public>true</public><nbBikes>14</nbBikes><nbEmptyDocks>9</nbEmptyDocks><latestUpdateTime>1363905912857</latestUpdateTime></station><station><id>103</id><name>Metro Center / 12th &amp; G St NW</name><terminalName>31230</terminalName><lastCommWithServer>1363905904443</lastCommWithServer><lat>38.898364</lat><long>-77.027869</long><installed>true</installed><locked>false</locked><installDate>1305259200000</installDate><removalDate/><temporary>false</temporary><public>true</public><nbBikes>19</nbBikes><nbEmptyDocks>12</nbEmptyDocks><latestUpdateTime>1363905903091</latestUpdateTime></station><station><id>104</id><name>14th &amp; D St NW / Ronald Reagan Building</name><terminalName>31231</terminalName><lastCommWithServer>1363905829061</lastCommWithServer><lat>38.894514</lat><long>-77.031617</long><installed>true</installed><locked>false</locked><installDate>1303306260000</installDate><removalDate/><temporary>false</temporary><public>true</public><nbBikes>7</nbBikes><nbEmptyDocks>18</nbEmptyDocks><latestUpdateTime>1363905344376</latestUpdateTime></station><station><id>105</id><name>7th &amp; F St NW / National Portrait Gallery</name><terminalName>31232</terminalName><lastCommWithServer>1363905915059</lastCommWithServer><lat>38.897324</lat><long>-77.022322</long><installed>true</installed><locked>false</locked><installDate>1304108940000</installDate><removalDate/><temporary>false</temporary><public>true</public><nbBikes>10</nbBikes><nbEmptyDocks>9</nbEmptyDocks><latestUpdateTime>1363905142270</latestUpdateTime></station><station><id>106</id><name>17th &amp; K St NW / Farragut Square</name><terminalName>31233</terminalName><lastCommWithServer>1363905954311</lastCommWithServer><lat>38.902061</lat><long>-77.038322</long><installed>true</installed><locked>false</locked><installDate>1304022480000</installDate><removalDate/><temporary>false</temporary><public>true</public><nbBikes>13</nbBikes><nbEmptyDocks>6</nbEmptyDocks><latestUpdateTime>1363905952687</latestUpdateTime></station><station><id>107</id><name>20th &amp; O St NW / Dupont South</name><terminalName>31234</terminalName><lastCommWithServer>1363905891390</lastCommWithServer><lat>38.908905</lat><long>-77.04478</long><installed>true</installed><locked>false</locked><installDate>1328850000000</installDate><removalDate/><temporary>false</temporary><public>true</public><nbBikes>7</nbBikes><nbEmptyDocks>11</nbEmptyDocks><latestUpdateTime>1363905407687</latestUpdateTime></station><station><id>108</id><name>4th &amp; D St NW / Judiciary Square</name><terminalName>31621</terminalName><lastCommWithServer>1363905962291</lastCommWithServer><lat>38.895344</lat><long>-77.016106</long><installed>true</installed><locked>false</locked><installDate>1304481600000</installDate><removalDate/><temporary>false</temporary><public>true</public><nbBikes>4</nbBikes><nbEmptyDocks>11</nbEmptyDocks><latestUpdateTime>1363905961444</latestUpdateTime></station><station><id>109</id><name>19th St &amp; Constitution Ave NW</name><terminalName>31235</terminalName><lastCommWithServer>1363905986853</lastCommWithServer><lat>38.8923</lat><long>-77.0436</long><installed>true</installed><locked>false</locked><installDate>1287607080000</installDate><removalDate/><temporary>false</temporary><public>true</public><nbBikes>12</nbBikes><nbEmptyDocks>11</nbEmptyDocks><latestUpdateTime>1363905985515</latestUpdateTime></station><station><id>110</id><name>37th &amp; O St NW / Georgetown University</name><terminalName>31236</terminalName><lastCommWithServer>1363905851831</lastCommWithServer><lat>38.90774</lat><long>-77.071652</long><installed>true</installed><locked>false</locked><installDate>1288037580000</installDate><removalDate/><temporary>false</temporary><public>true</public><nbBikes>12</nbBikes><nbEmptyDocks>11</nbEmptyDocks><latestUpdateTime>1363905367575</latestUpdateTime></station><station><id>111</id><name>11th &amp; H St NE</name><terminalName>31614</terminalName><lastCommWithServer>1363905959447</lastCommWithServer><lat>38.899983</lat><long>-76.991383</long><installed>true</installed><locked>false</locked><installDate>1323666000000</installDate><removalDate/><temporary>false</temporary><public>true</public><nbBikes>17</nbBikes><nbEmptyDocks>2</nbEmptyDocks><latestUpdateTime>1363905957200</latestUpdateTime></station><station><id>112</id><name>25th St &amp; Pennsylvania Ave NW</name><terminalName>31237</terminalName><lastCommWithServer>1363905940724</lastCommWithServer><lat>38.903827</lat><long>-77.053485</long><installed>true</installed><locked>false</locked><installDate>1288551000000</installDate><removalDate/><temporary>false</temporary><public>true</public><nbBikes>11</nbBikes><nbEmptyDocks>4</nbEmptyDocks><latestUpdateTime>1363904529556</latestUpdateTime></station><station><id>113</id><name>Columbus Circle / Union Station</name><terminalName>31623</terminalName><lastCommWithServer>1363905997652</lastCommWithServer><lat>38.89696</lat><long>-77.00493</long><installed>true</installed><locked>false</locked><installDate>1285905600000</installDate><removalDate/><temporary>false</temporary><public>true</public><nbBikes>7</nbBikes><nbEmptyDocks>24</nbEmptyDocks><latestUpdateTime>1363905995943</latestUpdateTime></station><station><id>114</id><name>North Capitol St &amp; F St NW</name><terminalName>31624</terminalName><lastCommWithServer>1363905971085</lastCommWithServer><lat>38.897446</lat><long>-77.009888</long><installed>true</installed><locked>false</locked><installDate>1288122720000</installDate><removalDate/><temporary>false</temporary><public>true</public><nbBikes>20</nbBikes><nbEmptyDocks>3</nbEmptyDocks><latestUpdateTime>1363905966849</latestUpdateTime></station><station><id>116</id><name>36th &amp; Calvert St NW / Glover Park</name><terminalName>31304</terminalName><lastCommWithServer>1363905861072</lastCommWithServer><lat>38.922581</lat><long>-77.070334</long><installed>true</installed><locked>false</locked><installDate>1289236620000</installDate><removalDate/><temporary>false</temporary><public>true</public><nbBikes>7</nbBikes><nbEmptyDocks>8</nbEmptyDocks><latestUpdateTime>1363901971832</latestUpdateTime></station><station><id>117</id><name>14th &amp; G St NW</name><terminalName>31238</terminalName><lastCommWithServer>1363905962123</lastCommWithServer><lat>38.898069</lat><long>-77.031823</long><installed>true</installed><locked>false</locked><installDate>1289237340000</installDate><removalDate/><temporary>false</temporary><public>true</public><nbBikes>4</nbBikes><nbEmptyDocks>19</nbEmptyDocks><latestUpdateTime>1363905719149</latestUpdateTime></station><station><id>118</id><name>Potomac Ave &amp; 35th St S</name><terminalName>31052</terminalName><lastCommWithServer>1363905862993</lastCommWithServer><lat>38.844015</lat><long>-77.050537</long><installed>true</installed><locked>false</locked><installDate>1351092960000</installDate><removalDate/><temporary>false</temporary><public>true</public><nbBikes>13</nbBikes><nbEmptyDocks>10</nbEmptyDocks><latestUpdateTime>1363898949436</latestUpdateTime></station><station><id>124</id><name>Ohio Dr &amp; West Basin Dr SW / MLK &amp; FDR Memorials</name><terminalName>31240</terminalName><lastCommWithServer>1363905974029</lastCommWithServer><lat>38.88412</lat><long>-77.04657</long><installed>true</installed><locked>false</locked><installDate>1331904960000</installDate><removalDate/><temporary>false</temporary><public>true</public><nbBikes>1</nbBikes><nbEmptyDocks>22</nbEmptyDocks><latestUpdateTime>1363904041594</latestUpdateTime></station><station><id>125</id><name>11th &amp; F St NW</name><terminalName>31262</terminalName><lastCommWithServer>1363906003843</lastCommWithServer><lat>38.897857</lat><long>-77.026975</long><installed>true</installed><locked>false</locked><installDate>1359981840000</installDate><removalDate/><temporary>true</temporary><public>true</public><nbBikes>5</nbBikes><nbEmptyDocks>10</nbEmptyDocks><latestUpdateTime>1363905760968</latestUpdateTime></station><station><id>126</id><name>23rd &amp; E St NW </name><terminalName>31260</terminalName><lastCommWithServer>1363905887194</lastCommWithServer><lat>38.896104</lat><long>-77.049882</long><installed>true</installed><locked>false</locked><installDate>1359652440000</installDate><removalDate/><temporary>false</temporary><public>true</public><nbBikes>3</nbBikes><nbEmptyDocks>15</nbEmptyDocks><latestUpdateTime>1363905162025</latestUpdateTime></station><station><id>127</id><name>Lynn &amp; 19th St North</name><terminalName>31014</terminalName><lastCommWithServer>1363906043303</lastCommWithServer><lat>38.897315</lat><long>-77.070993</long><installed>true</installed><locked>false</locked><installDate>1302957060000</installDate><removalDate/><temporary>false</temporary><public>true</public><nbBikes>15</nbBikes><nbEmptyDocks>4</nbEmptyDocks><latestUpdateTime>1363906043256</latestUpdateTime></station><station><id>128</id><name>Rosslyn Metro / Wilson Blvd &amp; Ft Myer Dr</name><terminalName>31015</terminalName><lastCommWithServer>1363905958242</lastCommWithServer><lat>38.8946</lat><long>-77.072305</long><installed>true</installed><locked>false</locked><installDate>1302957120000</installDate><removalDate/><temporary>false</temporary><public>true</public><nbBikes>7</nbBikes><nbEmptyDocks>8</nbEmptyDocks><latestUpdateTime>1363902818877</latestUpdateTime></station><station><id>129</id><name>Clarendon Blvd &amp; Pierce St</name><terminalName>31016</terminalName><lastCommWithServer>1363906015778</lastCommWithServer><lat>38.893648</lat><long>-77.076701</long><installed>true</installed><locked>false</locked><installDate>1302957960000</installDate><removalDate/><temporary>false</temporary><public>true</public><nbBikes>3</nbBikes><nbEmptyDocks>8</nbEmptyDocks><latestUpdateTime>1363898574778</latestUpdateTime></station><station><id>130</id><name>Court House Metro / Wilson Blvd &amp; N Uhle St</name><terminalName>31017</terminalName><lastCommWithServer>1363905950073</lastCommWithServer><lat>38.891696</lat><long>-77.0846</long><installed>true</installed><locked>false</locked><installDate>1320933600000</installDate><removalDate/><temporary>false</temporary><public>true</public><nbBikes>0</nbBikes><nbEmptyDocks>15</nbEmptyDocks><latestUpdateTime>1363897240908</latestUpdateTime></station><station><id>131</id><name>N Rhodes &amp; 16th St N</name><terminalName>31018</terminalName><lastCommWithServer>1363905863574</lastCommWithServer><lat>38.892164</lat><long>-77.079375</long><installed>true</installed><locked>false</locked><installDate>1302963480000</installDate><removalDate/><temporary>false</temporary><public>true</public><nbBikes>6</nbBikes><nbEmptyDocks>5</nbEmptyDocks><latestUpdateTime>1363898225384</latestUpdateTime></station><station><id>132</id><name>Fairfax Village</name><terminalName>31706</terminalName><lastCommWithServer>1363906036316</lastCommWithServer><lat>38.86559</lat><long>-76.952103</long><installed>true</installed><locked>false</locked><installDate>1311771600000</installDate><removalDate/><temporary>false</temporary><public>true</public><nbBikes>6</nbBikes><nbEmptyDocks>9</nbEmptyDocks><latestUpdateTime>1363893432449</latestUpdateTime></station><station><id>133</id><name>21st St &amp; Constitution Ave NW</name><terminalName>31261</terminalName><lastCommWithServer>1363906000315</lastCommWithServer><lat>38.892459</lat><long>-77.046567</long><installed>true</installed><locked>false</locked><installDate>1359639120000</installDate><removalDate/><temporary>false</temporary><public>true</public><nbBikes>8</nbBikes><nbEmptyDocks>7</nbEmptyDocks><latestUpdateTime>1363904429680</latestUpdateTime></station><station><id>134</id><name>Wilson Blvd &amp; N Edgewood St</name><terminalName>31019</terminalName><lastCommWithServer>1363905823400</lastCommWithServer><lat>38.889</lat><long>-77.0925</long><installed>true</installed><locked>false</locked><installDate>1321015980000</installDate><removalDate/><temporary>false</temporary><public>true</public><nbBikes>14</nbBikes><nbEmptyDocks>1</nbEmptyDocks><latestUpdateTime>1363905580180</latestUpdateTime></station><station><id>135</id><name>Columbia Rd &amp; Belmont St NW</name><terminalName>31113</terminalName><lastCommWithServer>1363905911911</lastCommWithServer><lat>38.920669</lat><long>-77.04368</long><installed>true</installed><locked>false</locked><installDate>1321625100000</installDate><removalDate/><temporary>false</temporary><public>true</public><nbBikes>14</nbBikes><nbEmptyDocks>5</nbEmptyDocks><latestUpdateTime>1363905668827</latestUpdateTime></station><station><id>136</id><name>17th &amp; Rhode Island Ave NW</name><terminalName>31239</terminalName><lastCommWithServer>1363905878405</lastCommWithServer><lat>38.906602</lat><long>-77.038785</long><installed>true</installed><locked>false</locked><installDate>1321639800000</installDate><removalDate/><temporary>false</temporary><public>true</public><nbBikes>3</nbBikes><nbEmptyDocks>20</nbEmptyDocks><latestUpdateTime>1363905876158</latestUpdateTime></station><station><id>137</id><name>Thomas Circle</name><terminalName>31241</terminalName><lastCommWithServer>1363906045415</lastCommWithServer><lat>38.9059</lat><long>-77.0325</long><installed>true</installed><locked>false</locked><installDate>1321714320000</installDate><removalDate/><temporary>false</temporary><public>true</public><nbBikes>1</nbBikes><nbEmptyDocks>32</nbEmptyDocks><latestUpdateTime>1363905801800</latestUpdateTime></station><station><id>138</id><name>Wilson Blvd &amp; Franklin Rd</name><terminalName>31020</terminalName><lastCommWithServer>1363905988777</lastCommWithServer><lat>38.8904</lat><long>-77.0889</long><installed>true</installed><locked>false</locked><installDate>1322715600000</installDate><removalDate/><temporary>false</temporary><public>true</public><nbBikes>4</nbBikes><nbEmptyDocks>7</nbEmptyDocks><latestUpdateTime>1363903508761</latestUpdateTime></station><station><id>139</id><name>Clarendon Blvd &amp; N Fillmore St</name><terminalName>31021</terminalName><lastCommWithServer>1363905976878</lastCommWithServer><lat>38.8881</lat><long>-77.09308</long><installed>true</installed><locked>false</locked><installDate>1321981080000</installDate><removalDate/><temporary>false</temporary><public>true</public><nbBikes>7</nbBikes><nbEmptyDocks>8</nbEmptyDocks><latestUpdateTime>1363904525686</latestUpdateTime></station><station><id>140</id><name>Clarendon Metro / Wilson Blvd &amp; N Highland St</name><terminalName>31022</terminalName><lastCommWithServer>1363905985039</lastCommWithServer><lat>38.88786</lat><long>-77.094875</long><installed>true</installed><locked>false</locked><installDate>1321983480000</installDate><removalDate/><temporary>false</temporary><public>true</public><nbBikes>6</nbBikes><nbEmptyDocks>11</nbEmptyDocks><latestUpdateTime>1363903525305</latestUpdateTime></station><station><id>141</id><name>18th St &amp; Pennsylvania Ave NW</name><terminalName>31242</terminalName><lastCommWithServer>1363906048595</lastCommWithServer><lat>38.89968</lat><long>-77.041539</long><installed>true</installed><locked>false</locked><installDate>1322571600000</installDate><removalDate/><temporary>false</temporary><public>true</public><nbBikes>0</nbBikes><nbEmptyDocks>15</nbEmptyDocks><latestUpdateTime>1363904115411</latestUpdateTime></station><station><id>142</id><name>Maryland &amp; Independence Ave SW</name><terminalName>31243</terminalName><lastCommWithServer>1363905980420</lastCommWithServer><lat>38.887299</lat><long>-77.018939</long><installed>true</installed><locked>false</locked><installDate>1327669020000</installDate><removalDate/><temporary>false</temporary><public>true</public><nbBikes>16</nbBikes><nbEmptyDocks>23</nbEmptyDocks><latestUpdateTime>1363905979028</latestUpdateTime></station><station><id>143</id><name>4th &amp; E St SW</name><terminalName>31244</terminalName><lastCommWithServer>1363905887313</lastCommWithServer><lat>38.88412</lat><long>-77.017445</long><installed>true</installed><locked>false</locked><installDate>1322756880000</installDate><removalDate/><temporary>false</temporary><public>true</public><nbBikes>7</nbBikes><nbEmptyDocks>12</nbEmptyDocks><latestUpdateTime>1363905644070</latestUpdateTime></station><station><id>144</id><name>3rd &amp; G St SE</name><terminalName>31625</terminalName><lastCommWithServer>1363905991676</lastCommWithServer><lat>38.881185</lat><long>-77.001828</long><installed>true</installed><locked>false</locked><installDate>1322661660000</installDate><removalDate/><temporary>false</temporary><public>true</public><nbBikes>12</nbBikes><nbEmptyDocks>7</nbEmptyDocks><latestUpdateTime>1363905747610</latestUpdateTime></station><station><id>145</id><name>7th &amp; R St NW / Shaw Library</name><terminalName>31245</terminalName><lastCommWithServer>1363905897994</lastCommWithServer><lat>38.912719</lat><long>-77.022155</long><installed>true</installed><locked>false</locked><installDate>1322583120000</installDate><removalDate/><temporary>false</temporary><public>true</public><nbBikes>0</nbBikes><nbEmptyDocks>15</nbEmptyDocks><latestUpdateTime>1363905897174</latestUpdateTime></station><station><id>146</id><name>9th &amp; Upshur St NW</name><terminalName>31404</terminalName><lastCommWithServer>1363906025876</lastCommWithServer><lat>38.9418</lat><long>-77.0251</long><installed>true</installed><locked>false</locked><installDate>1323194880000</installDate><removalDate/><temporary>false</temporary><public>true</public><nbBikes>9</nbBikes><nbEmptyDocks>6</nbEmptyDocks><latestUpdateTime>1363897813977</latestUpdateTime></station><station><id>147</id><name>1st &amp; Rhode Island Ave NW</name><terminalName>31506</terminalName><lastCommWithServer>1363905847815</lastCommWithServer><lat>38.915417</lat><long>-77.012289</long><installed>true</installed><locked>false</locked><installDate>1323178380000</installDate><removalDate/><temporary>false</temporary><public>true</public><nbBikes>10</nbBikes><nbEmptyDocks>5</nbEmptyDocks><latestUpdateTime>1363905603473</latestUpdateTime></station><station><id>148</id><name>Columbia Rd &amp; Georgia Ave NW</name><terminalName>31115</terminalName><lastCommWithServer>1363905830684</lastCommWithServer><lat>38.928156</lat><long>-77.02344</long><installed>true</installed><locked>false</locked><installDate>1323234000000</installDate><removalDate/><temporary>false</temporary><public>true</public><nbBikes>13</nbBikes><nbEmptyDocks>5</nbEmptyDocks><latestUpdateTime>1363905587561</latestUpdateTime></station><station><id>149</id><name>California St &amp; Florida Ave NW</name><terminalName>31116</terminalName><lastCommWithServer>1363905979382</lastCommWithServer><lat>38.917761</lat><long>-77.04062</long><installed>true</installed><locked>false</locked><installDate>1323752400000</installDate><removalDate/><temporary>false</temporary><public>true</public><nbBikes>16</nbBikes><nbEmptyDocks>3</nbEmptyDocks><latestUpdateTime>1363905977297</latestUpdateTime></station><station><id>150</id><name>Benning Rd &amp; East Capitol St NE / Benning Rd Metro</name><terminalName>31707</terminalName><lastCommWithServer>1363905858955</lastCommWithServer><lat>38.889935</lat><long>-76.93723</long><installed>true</installed><locked>false</locked><installDate>1324404360000</installDate><removalDate/><temporary>false</temporary><public>true</public><nbBikes>6</nbBikes><nbEmptyDocks>13</nbEmptyDocks><latestUpdateTime>1363868779496</latestUpdateTime></station><station><id>151</id><name>3000 Connecticut Ave NW / National Zoo</name><terminalName>31307</terminalName><lastCommWithServer>1363905824235</lastCommWithServer><lat>38.930282</lat><long>-77.055599</long><installed>true</installed><locked>false</locked><installDate>1324496640000</installDate><removalDate/><temporary>false</temporary><public>true</public><nbBikes>10</nbBikes><nbEmptyDocks>5</nbEmptyDocks><latestUpdateTime>1363905822381</latestUpdateTime></station><station><id>152</id><name>Anacostia Ave &amp; Benning Rd NE / River Terrace </name><terminalName>31708</terminalName><lastCommWithServer>1363906016162</lastCommWithServer><lat>38.896544</lat><long>-76.96012</long><installed>true</installed><locked>false</locked><installDate>1324402320000</installDate><removalDate/><temporary>false</temporary><public>true</public><nbBikes>9</nbBikes><nbEmptyDocks>6</nbEmptyDocks><latestUpdateTime>1363817486228</latestUpdateTime></station><station><id>153</id><name>M St &amp; Pennsylvania Ave NW</name><terminalName>31246</terminalName><lastCommWithServer>1363905934060</lastCommWithServer><lat>38.905126</lat><long>-77.056887</long><installed>true</installed><locked>false</locked><installDate>1324485480000</installDate><removalDate/><temporary>false</temporary><public>true</public><nbBikes>7</nbBikes><nbEmptyDocks>12</nbEmptyDocks><latestUpdateTime>1363905932459</latestUpdateTime></station><station><id>154</id><name>15th St &amp; Massachusetts Ave SE</name><terminalName>31626</terminalName><lastCommWithServer>1363905939574</lastCommWithServer><lat>38.88732</lat><long>-76.983569</long><installed>true</installed><locked>false</locked><installDate>1324565040000</installDate><removalDate/><temporary>false</temporary><public>true</public><nbBikes>13</nbBikes><nbEmptyDocks>2</nbEmptyDocks><latestUpdateTime>1363905695949</latestUpdateTime></station><station><id>155</id><name>Congress Heights Metro</name><terminalName>31806</terminalName><lastCommWithServer>1363906013270</lastCommWithServer><lat>38.844711</lat><long>-76.987823</long><installed>true</installed><locked>false</locked><installDate>1324581180000</installDate><removalDate/><temporary>false</temporary><public>true</public><nbBikes>5</nbBikes><nbEmptyDocks>10</nbEmptyDocks><latestUpdateTime>1363826853418</latestUpdateTime></station><station><id>156</id><name>N Quincy St &amp; Glebe Rd</name><terminalName>31035</terminalName><lastCommWithServer>1363905972499</lastCommWithServer><lat>38.876393</lat><long>-77.107735</long><installed>true</installed><locked>false</locked><installDate>1335552600000</installDate><removalDate/><temporary>false</temporary><public>true</public><nbBikes>6</nbBikes><nbEmptyDocks>5</nbEmptyDocks><latestUpdateTime>1363903871078</latestUpdateTime></station><station><id>157</id><name>Wilson Blvd &amp; N Oakland St</name><terminalName>31033</terminalName><lastCommWithServer>1363906048198</lastCommWithServer><lat>38.8815</lat><long>-77.10396</long><installed>true</installed><locked>false</locked><installDate>1335387720000</installDate><removalDate/><temporary>false</temporary><public>true</public><nbBikes>5</nbBikes><nbEmptyDocks>6</nbEmptyDocks><latestUpdateTime>1363903220217</latestUpdateTime></station><station><id>158</id><name>N Veitch  &amp; 20th St N</name><terminalName>31029</terminalName><lastCommWithServer>1363905879137</lastCommWithServer><lat>38.896923</lat><long>-77.086502</long><installed>true</installed><locked>false</locked><installDate>1335213360000</installDate><removalDate/><temporary>false</temporary><public>true</public><nbBikes>7</nbBikes><nbEmptyDocks>8</nbEmptyDocks><latestUpdateTime>1363901739662</latestUpdateTime></station><station><id>159</id><name>11th &amp; K St NW</name><terminalName>31263</terminalName><lastCommWithServer>1363905943235</lastCommWithServer><lat>38.90268</lat><long>-77.02674</long><installed>true</installed><locked>false</locked><installDate>1360936140000</installDate><removalDate/><temporary>false</temporary><public>true</public><nbBikes>0</nbBikes><nbEmptyDocks>19</nbEmptyDocks><latestUpdateTime>1363905322545</latestUpdateTime></station><station><id>160</id><name>Fairfax Dr &amp; Wilson Blvd</name><terminalName>31023</terminalName><lastCommWithServer>1363905857836</lastCommWithServer><lat>38.885801</lat><long>-77.097745</long><installed>true</installed><locked>false</locked><installDate>1335545880000</installDate><removalDate/><temporary>false</temporary><public>true</public><nbBikes>5</nbBikes><nbEmptyDocks>6</nbEmptyDocks><latestUpdateTime>1363903932034</latestUpdateTime></station><station><id>161</id><name>Key Blvd &amp; N Quinn St</name><terminalName>31027</terminalName><lastCommWithServer>1363906017965</lastCommWithServer><lat>38.896015</lat><long>-77.078107</long><installed>true</installed><locked>false</locked><installDate>1335195480000</installDate><removalDate/><temporary>false</temporary><public>true</public><nbBikes>2</nbBikes><nbEmptyDocks>9</nbEmptyDocks><latestUpdateTime>1363892528869</latestUpdateTime></station><station><id>162</id><name>1st &amp; K St SE</name><terminalName>31628</terminalName><lastCommWithServer>1363906020899</lastCommWithServer><lat>38.87861</lat><long>-77.006004</long><installed>true</installed><locked>false</locked><installDate>1328717220000</installDate><removalDate/><temporary>false</temporary><public>true</public><nbBikes>11</nbBikes><nbEmptyDocks>3</nbEmptyDocks><latestUpdateTime>1363904329709</latestUpdateTime></station><station><id>163</id><name>39th &amp; Calvert St NW / Stoddert</name><terminalName>31306</terminalName><lastCommWithServer>1363905906443</lastCommWithServer><lat>38.922649</lat><long>-77.077271</long><installed>true</installed><locked>false</locked><installDate>1328898300000</installDate><removalDate/><temporary>false</temporary><public>true</public><nbBikes>3</nbBikes><nbEmptyDocks>16</nbEmptyDocks><latestUpdateTime>1363905662281</latestUpdateTime></station><station><id>164</id><name>1st &amp; Washington Hospital Center NW</name><terminalName>31507</terminalName><lastCommWithServer>1363905877279</lastCommWithServer><lat>38.928743</lat><long>-77.012457</long><installed>true</installed><locked>false</locked><installDate>1329153540000</installDate><removalDate/><temporary>false</temporary><public>true</public><nbBikes>3</nbBikes><nbEmptyDocks>12</nbEmptyDocks><latestUpdateTime>1363905634653</latestUpdateTime></station><station><id>165</id><name>Virginia Square Metro / N Monroe St &amp; 9th St N</name><terminalName>31024</terminalName><lastCommWithServer>1363905925679</lastCommWithServer><lat>38.882788</lat><long>-77.103148</long><installed>true</installed><locked>false</locked><installDate>1329508980000</installDate><removalDate/><temporary>false</temporary><public>true</public><nbBikes>4</nbBikes><nbEmptyDocks>15</nbEmptyDocks><latestUpdateTime>1363905924774</latestUpdateTime></station><station><id>166</id><name>Central Library / N Quincy St &amp; 10th St N</name><terminalName>31025</terminalName><lastCommWithServer>1363905853389</lastCommWithServer><lat>38.88397</lat><long>-77.10783</long><installed>true</installed><locked>false</locked><installDate>1329493920000</installDate><removalDate/><temporary>false</temporary><public>true</public><nbBikes>6</nbBikes><nbEmptyDocks>5</nbEmptyDocks><latestUpdateTime>1363839268801</latestUpdateTime></station><station><id>167</id><name>Washington Blvd &amp; 10th St N</name><terminalName>31026</terminalName><lastCommWithServer>1363905882864</lastCommWithServer><lat>38.884734</lat><long>-77.093485</long><installed>true</installed><locked>false</locked><installDate>1329944340000</installDate><removalDate/><temporary>false</temporary><public>true</public><nbBikes>10</nbBikes><nbEmptyDocks>5</nbEmptyDocks><latestUpdateTime>1363903467847</latestUpdateTime></station><station><id>168</id><name>Jefferson Dr &amp; 14th St SW</name><terminalName>31247</terminalName><lastCommWithServer>1363906019037</lastCommWithServer><lat>38.888553</lat><long>-77.032429</long><installed>true</installed><locked>false</locked><installDate>1331911860000</installDate><removalDate/><temporary>false</temporary><public>true</public><nbBikes>3</nbBikes><nbEmptyDocks>20</nbEmptyDocks><latestUpdateTime>1363902299730</latestUpdateTime></station><station><id>169</id><name>Smithsonian / Jefferson Dr &amp; 12th St SW</name><terminalName>31248</terminalName><lastCommWithServer>1363905896699</lastCommWithServer><lat>38.888767</lat><long>-77.02858</long><installed>true</installed><locked>false</locked><installDate>1333369620000</installDate><removalDate/><temporary>false</temporary><public>true</public><nbBikes>3</nbBikes><nbEmptyDocks>20</nbEmptyDocks><latestUpdateTime>1363904688020</latestUpdateTime></station><station><id>170</id><name>George Mason Dr &amp; Wilson Blvd</name><terminalName>31036</terminalName><lastCommWithServer>1363905916625</lastCommWithServer><lat>38.87887</lat><long>-77.1207</long><installed>true</installed><locked>false</locked><installDate>1335805380000</installDate><removalDate/><temporary>false</temporary><public>true</public><nbBikes>12</nbBikes><nbEmptyDocks>3</nbEmptyDocks><latestUpdateTime>1363895028794</latestUpdateTime></station><station><id>172</id><name>N Veitch &amp; Key Blvd</name><terminalName>31028</terminalName><lastCommWithServer>1363905829934</lastCommWithServer><lat>38.893241</lat><long>-77.086045</long><installed>true</installed><locked>false</locked><installDate>1335202980000</installDate><removalDate/><temporary>false</temporary><public>true</public><nbBikes>0</nbBikes><nbEmptyDocks>11</nbEmptyDocks><latestUpdateTime>1363901637243</latestUpdateTime></station><station><id>173</id><name>N Adams St &amp; Lee Hwy</name><terminalName>31030</terminalName><lastCommWithServer>1363905880054</lastCommWithServer><lat>38.89593</lat><long>-77.089006</long><installed>true</installed><locked>false</locked><installDate>1335369060000</installDate><removalDate/><temporary>false</temporary><public>true</public><nbBikes>6</nbBikes><nbEmptyDocks>5</nbEmptyDocks><latestUpdateTime>1363903899050</latestUpdateTime></station><station><id>174</id><name>15th &amp; N Scott St</name><terminalName>31031</terminalName><lastCommWithServer>1363905856515</lastCommWithServer><lat>38.89054</lat><long>-77.08095</long><installed>true</installed><locked>false</locked><installDate>1335362100000</installDate><removalDate/><temporary>false</temporary><public>true</public><nbBikes>2</nbBikes><nbEmptyDocks>9</nbEmptyDocks><latestUpdateTime>1363905131424</latestUpdateTime></station><station><id>175</id><name>Washington Blvd &amp; 7th St N</name><terminalName>31032</terminalName><lastCommWithServer>1363905891207</lastCommWithServer><lat>38.880834</lat><long>-77.091129</long><installed>true</installed><locked>false</locked><installDate>1335794400000</installDate><removalDate/><temporary>false</temporary><public>true</public><nbBikes>4</nbBikes><nbEmptyDocks>7</nbEmptyDocks><latestUpdateTime>1363899388191</latestUpdateTime></station><station><id>176</id><name>Ballston Metro / N Stuart &amp; 9th St N</name><terminalName>31037</terminalName><lastCommWithServer>1363906054168</lastCommWithServer><lat>38.881044</lat><long>-77.111768</long><installed>true</installed><locked>false</locked><installDate>1335817440000</installDate><removalDate/><temporary>false</temporary><public>true</public><nbBikes>1</nbBikes><nbEmptyDocks>18</nbEmptyDocks><latestUpdateTime>1363905087534</latestUpdateTime></station><station><id>177</id><name>N Randolph St &amp; Fairfax Dr</name><terminalName>31034</terminalName><lastCommWithServer>1363905999677</lastCommWithServer><lat>38.882629</lat><long>-77.109366</long><installed>true</installed><locked>false</locked><installDate>1335542580000</installDate><removalDate/><temporary>false</temporary><public>true</public><nbBikes>7</nbBikes><nbEmptyDocks>4</nbEmptyDocks><latestUpdateTime>1363900020717</latestUpdateTime></station><station><id>178</id><name>Jefferson Memorial</name><terminalName>31249</terminalName><lastCommWithServer>1363905900598</lastCommWithServer><lat>38.879819</lat><long>-77.037413</long><installed>true</installed><locked>false</locked><installDate>1335969180000</installDate><removalDate/><temporary>false</temporary><public>true</public><nbBikes>6</nbBikes><nbEmptyDocks>17</nbEmptyDocks><latestUpdateTime>1363904899105</latestUpdateTime></station><station><id>179</id><name>Good Hope Rd &amp; 14th St SE</name><terminalName>31803</terminalName><lastCommWithServer>1363906058983</lastCommWithServer><lat>38.866611</lat><long>-76.985238</long><installed>true</installed><locked>false</locked><installDate>1335981060000</installDate><removalDate/><temporary>false</temporary><public>true</public><nbBikes>8</nbBikes><nbEmptyDocks>7</nbEmptyDocks><latestUpdateTime>1363845281588</latestUpdateTime></station><station><id>180</id><name>Glebe Rd &amp; 11th St N</name><terminalName>31038</terminalName><lastCommWithServer>1363905897560</lastCommWithServer><lat>38.883921</lat><long>-77.116817</long><installed>true</installed><locked>false</locked><installDate>1337269200000</installDate><removalDate/><temporary>false</temporary><public>true</public><nbBikes>8</nbBikes><nbEmptyDocks>3</nbEmptyDocks><latestUpdateTime>1363902557348</latestUpdateTime></station><station><id>181</id><name>N Quincy St &amp; Wilson Blvd</name><terminalName>31039</terminalName><lastCommWithServer>1363906058334</lastCommWithServer><lat>38.880151</lat><long>-77.107673</long><installed>true</installed><locked>false</locked><installDate>1338301620000</installDate><removalDate/><temporary>false</temporary><public>true</public><nbBikes>7</nbBikes><nbEmptyDocks>4</nbEmptyDocks><latestUpdateTime>1363904063305</latestUpdateTime></station><station><id>182</id><name>Fairfax Dr &amp; Glebe Rd</name><terminalName>31040</terminalName><lastCommWithServer>1363905886926</lastCommWithServer><lat>38.882281</lat><long>-77.115449</long><installed>true</installed><locked>false</locked><installDate>1338907680000</installDate><removalDate/><temporary>false</temporary><public>true</public><nbBikes>9</nbBikes><nbEmptyDocks>6</nbEmptyDocks><latestUpdateTime>1363903158123</latestUpdateTime></station><station><id>183</id><name>Gallaudet / 8th St &amp; Florida Ave NE</name><terminalName>31508</terminalName><lastCommWithServer>1363905984663</lastCommWithServer><lat>38.90509</lat><long>-76.9941</long><installed>true</installed><locked>false</locked><installDate>1342033620000</installDate><removalDate/><temporary>false</temporary><public>true</public><nbBikes>10</nbBikes><nbEmptyDocks>9</nbEmptyDocks><latestUpdateTime>1363905739920</latestUpdateTime></station><station><id>185</id><name>20th &amp; L St NW</name><terminalName>31250</terminalName><lastCommWithServer>1363906057761</lastCommWithServer><lat>38.903584</lat><long>-77.044789</long><installed>true</installed><locked>false</locked><installDate>1340632500000</installDate><removalDate/><temporary>false</temporary><public>true</public><nbBikes>0</nbBikes><nbEmptyDocks>18</nbEmptyDocks><latestUpdateTime>1363905377340</latestUpdateTime></station><station><id>186</id><name>12th &amp; L St NW</name><terminalName>31251</terminalName><lastCommWithServer>1363905923214</lastCommWithServer><lat>38.903819</lat><long>-77.0284</long><installed>true</installed><locked>false</locked><installDate>1340639640000</installDate><removalDate/><temporary>false</temporary><public>true</public><nbBikes>11</nbBikes><nbEmptyDocks>8</nbEmptyDocks><latestUpdateTime>1363905920562</latestUpdateTime></station><station><id>187</id><name>21st St &amp; Pennsylvania Ave NW</name><terminalName>31252</terminalName><lastCommWithServer>1363906040778</lastCommWithServer><lat>38.901539</lat><long>-77.046564</long><installed>true</installed><locked>false</locked><installDate>1340811180000</installDate><removalDate/><temporary>false</temporary><public>true</public><nbBikes>12</nbBikes><nbEmptyDocks>7</nbEmptyDocks><latestUpdateTime>1363905567544</latestUpdateTime></station><station><id>188</id><name>19th &amp; K St NW</name><terminalName>31253</terminalName><lastCommWithServer>1363905960618</lastCommWithServer><lat>38.902204</lat><long>-77.04337</long><installed>true</installed><locked>false</locked><installDate>1340801880000</installDate><removalDate/><temporary>false</temporary><public>true</public><nbBikes>5</nbBikes><nbEmptyDocks>18</nbEmptyDocks><latestUpdateTime>1363905234374</latestUpdateTime></station><station><id>189</id><name>Prince St &amp; Union St</name><terminalName>31041</terminalName><lastCommWithServer>1363905918547</lastCommWithServer><lat>38.803124</lat><long>-77.040363</long><installed>true</installed><locked>false</locked><installDate>1346070420000</installDate><removalDate/><temporary>false</temporary><public>true</public><nbBikes>8</nbBikes><nbEmptyDocks>11</nbEmptyDocks><latestUpdateTime>1363901053547</latestUpdateTime></station><station><id>190</id><name>Market Square / King St &amp; Royal St</name><terminalName>31042</terminalName><lastCommWithServer>1363906033468</lastCommWithServer><lat>38.804718</lat><long>-77.043363</long><installed>true</installed><locked>false</locked><installDate>1346077680000</installDate><removalDate/><temporary>false</temporary><public>true</public><nbBikes>11</nbBikes><nbEmptyDocks>4</nbEmptyDocks><latestUpdateTime>1363893588481</latestUpdateTime></station><station><id>191</id><name>Saint Asaph St &amp; Pendleton  St</name><terminalName>31043</terminalName><lastCommWithServer>1363905894020</lastCommWithServer><lat>38.810743</lat><long>-77.044664</long><installed>true</installed><locked>false</locked><installDate>1346084880000</installDate><removalDate/><temporary>false</temporary><public>true</public><nbBikes>10</nbBikes><nbEmptyDocks>5</nbEmptyDocks><latestUpdateTime>1363902185951</latestUpdateTime></station><station><id>192</id><name>King St &amp; Patrick St</name><terminalName>31044</terminalName><lastCommWithServer>1363905840251</lastCommWithServer><lat>38.805317</lat><long>-77.049883</long><installed>true</installed><locked>false</locked><installDate>1346442900000</installDate><removalDate/><temporary>false</temporary><public>true</public><nbBikes>10</nbBikes><nbEmptyDocks>5</nbEmptyDocks><latestUpdateTime>1363904632218</latestUpdateTime></station><station><id>193</id><name>15th &amp; K St NW</name><terminalName>31254</terminalName><lastCommWithServer>1363905861914</lastCommWithServer><lat>38.902</lat><long>-77.03353</long><installed>true</installed><locked>false</locked><installDate>1341232920000</installDate><removalDate/><temporary>false</temporary><public>true</public><nbBikes>2</nbBikes><nbEmptyDocks>17</nbEmptyDocks><latestUpdateTime>1363904213670</latestUpdateTime></station><station><id>194</id><name>Commerce St &amp; Fayette St</name><terminalName>31045</terminalName><lastCommWithServer>1363905841010</lastCommWithServer><lat>38.805648</lat><long>-77.05293</long><installed>true</installed><locked>false</locked><installDate>1346442960000</installDate><removalDate/><temporary>false</temporary><public>true</public><nbBikes>9</nbBikes><nbEmptyDocks>6</nbEmptyDocks><latestUpdateTime>1363904284184</latestUpdateTime></station><station><id>195</id><name>Henry St &amp; Pendleton St</name><terminalName>31046</terminalName><lastCommWithServer>1363905922304</lastCommWithServer><lat>38.811456</lat><long>-77.050276</long><installed>true</installed><locked>false</locked><installDate>1346442960000</installDate><removalDate/><temporary>false</temporary><public>true</public><nbBikes>12</nbBikes><nbEmptyDocks>5</nbEmptyDocks><latestUpdateTime>1363902530335</latestUpdateTime></station><station><id>196</id><name>Braddock Rd Metro</name><terminalName>31047</terminalName><lastCommWithServer>1363905889142</lastCommWithServer><lat>38.814577</lat><long>-77.052808</long><installed>true</installed><locked>false</locked><installDate>1346442960000</installDate><removalDate/><temporary>false</temporary><public>true</public><nbBikes>15</nbBikes><nbEmptyDocks>4</nbEmptyDocks><latestUpdateTime>1363904612432</latestUpdateTime></station><station><id>197</id><name>King St Metro</name><terminalName>31048</terminalName><lastCommWithServer>1363905865997</lastCommWithServer><lat>38.805767</lat><long>-77.06072</long><installed>true</installed><locked>false</locked><installDate>1346443020000</installDate><removalDate/><temporary>false</temporary><public>true</public><nbBikes>15</nbBikes><nbEmptyDocks>4</nbEmptyDocks><latestUpdateTime>1363904898932</latestUpdateTime></station><station><id>198</id><name>24th &amp; N St NW</name><terminalName>31255</terminalName><lastCommWithServer>1363905953222</lastCommWithServer><lat>38.9066</lat><long>-77.05152</long><installed>true</installed><locked>false</locked><installDate>1341575340000</installDate><removalDate/><temporary>false</temporary><public>true</public><nbBikes>2</nbBikes><nbEmptyDocks>13</nbEmptyDocks><latestUpdateTime>1363904361633</latestUpdateTime></station><station><id>199</id><name>10th &amp; E St NW</name><terminalName>31256</terminalName><lastCommWithServer>1363905984019</lastCommWithServer><lat>38.895914</lat><long>-77.026064</long><installed>true</installed><locked>false</locked><installDate>1342109700000</installDate><removalDate/><temporary>false</temporary><public>true</public><nbBikes>6</nbBikes><nbEmptyDocks>9</nbEmptyDocks><latestUpdateTime>1363905982063</latestUpdateTime></station><station><id>200</id><name>22nd &amp; I St NW / Foggy Bottom</name><terminalName>31257</terminalName><lastCommWithServer>1363905938050</lastCommWithServer><lat>38.90088</lat><long>-77.048911</long><installed>true</installed><locked>false</locked><installDate>1342442220000</installDate><removalDate/><temporary>false</temporary><public>true</public><nbBikes>1</nbBikes><nbEmptyDocks>14</nbEmptyDocks><latestUpdateTime>1363905937460</latestUpdateTime></station><station><id>201</id><name>Utah St &amp; 11th St N </name><terminalName>31049</terminalName><lastCommWithServer>1363905948979</lastCommWithServer><lat>38.883669</lat><long>-77.113905</long><installed>true</installed><locked>false</locked><installDate>1342539420000</installDate><removalDate/><temporary>false</temporary><public>true</public><nbBikes>8</nbBikes><nbEmptyDocks>3</nbEmptyDocks><latestUpdateTime>1363816075730</latestUpdateTime></station><station><id>202</id><name>Barton St &amp; 10th St N</name><terminalName>31050</terminalName><lastCommWithServer>1363906041551</lastCommWithServer><lat>38.884961</lat><long>-77.08777</long><installed>true</installed><locked>false</locked><installDate>1346771820000</installDate><removalDate/><temporary>false</temporary><public>true</public><nbBikes>7</nbBikes><nbEmptyDocks>4</nbEmptyDocks><latestUpdateTime>1363898803946</latestUpdateTime></station><station><id>203</id><name>Arlington Blvd &amp; N Queen St</name><terminalName>31051</terminalName><lastCommWithServer>1363905910113</lastCommWithServer><lat>38.889365</lat><long>-77.077294</long><installed>true</installed><locked>false</locked><installDate>1346776740000</installDate><removalDate/><temporary>false</temporary><public>true</public><nbBikes>10</nbBikes><nbEmptyDocks>1</nbEmptyDocks><latestUpdateTime>1363903519805</latestUpdateTime></station><station><id>204</id><name>Lincoln Memorial</name><terminalName>31258</terminalName><lastCommWithServer>1363906027614</lastCommWithServer><lat>38.888251</lat><long>-77.049426</long><installed>true</installed><locked>false</locked><installDate>1349268360000</installDate><removalDate/><temporary>false</temporary><public>true</public><nbBikes>10</nbBikes><nbEmptyDocks>15</nbEmptyDocks><latestUpdateTime>1363898840402</latestUpdateTime></station><station><id>206</id><name>20th St &amp; Virginia Ave NW</name><terminalName>31259</terminalName><lastCommWithServer>1363905977645</lastCommWithServer><lat>38.894722</lat><long>-77.045128</long><installed>true</installed><locked>false</locked><installDate>1359646980000</installDate><removalDate/><temporary>false</temporary><public>true</public><nbBikes>8</nbBikes><nbEmptyDocks>7</nbEmptyDocks><latestUpdateTime>1363904250304</latestUpdateTime></station><station><id>208</id><name>39th &amp; Veazey St NW</name><terminalName>31308</terminalName><lastCommWithServer>1363905993319</lastCommWithServer><lat>38.943837</lat><long>-77.077078</long><installed>true</installed><locked>false</locked><installDate>1360598160000</installDate><removalDate/><temporary>false</temporary><public>true</public><nbBikes>10</nbBikes><nbEmptyDocks>5</nbEmptyDocks><latestUpdateTime>1363904675483</latestUpdateTime></station><station><id>209</id><name>Fessenden St &amp; Wisconsin Ave NW</name><terminalName>31309</terminalName><lastCommWithServer>1363905904465</lastCommWithServer><lat>38.954812</lat><long>-77.082426</long><installed>true</installed><locked>false</locked><installDate>1360588560000</installDate><removalDate/><temporary>false</temporary><public>true</public><nbBikes>9</nbBikes><nbEmptyDocks>6</nbEmptyDocks><latestUpdateTime>1363893271266</latestUpdateTime></station><station><id>210</id><name>M St &amp; Delaware Ave NE</name><terminalName>31627</terminalName><lastCommWithServer>1363906010457</lastCommWithServer><lat>38.905707</lat><long>-77.003041</long><installed>true</installed><locked>false</locked><installDate>1360929900000</installDate><removalDate/><temporary>false</temporary><public>true</public><nbBikes>10</nbBikes><nbEmptyDocks>13</nbEmptyDocks><latestUpdateTime>1363906008690</latestUpdateTime></station></stations>